[
  {
    "id": "1",
    "name": "Evergreen Erectors Inc.",
    "slug": "evergreen-erectors",
    "description": "",
    "address": "1716 W Marine View Dr #C, Everett, WA 98201",
    "phone": "+1 952-445-4143",
    "rating": 0,
    "reviewCount": 0,
    "badges": ["featured"],
    "image": "/images/construction-wide.png",
    "categories": ["Mass Timber"],
    "location": "Washington",
    "lat": 47.979,
    "lng": -122.207
  },
  {
    "id": "2",
    "name": "FOUST Fabrication & Erectors",
    "slug": "foust-fabrication-erectors",
    "description": "Union Steel and Mass Timber Erection Company. Erected the largest mass timber project in North America — Walmart Home Office Campus (1.2M sqft, 78,426 ironworker hours). IMPACT Project of the Year Winner.",
    "address": "Orin-Rice Road, Rice, Washington, 99167",
    "phone": "(509) 684-3754",
    "rating": 5,
    "reviewCount": 1,
    "badges": ["popular", "featured"],
    "image": "/images/timber-beams-wide.png",
    "categories": ["Mass Timber"],
    "location": "Washington",
    "lat": 48.095,
    "lng": -117.707
  },
  {
    "id": "3",
    "name": "Davner Group",
    "slug": "davner-group",
    "description": "",
    "address": "1204 Shadow Meadow Way",
    "phone": "",
    "rating": 0,
    "reviewCount": 0,
    "badges": [],
    "image": "/images/panoramic-beams.png",
    "categories": ["Mass Timber"],
    "location": "",
    "lat": null,
    "lng": null
  },
  {
    "id": "4",
    "name": "Moen Iron",
    "slug": "moen-iron",
    "description": "",
    "address": "",
    "phone": "(760) 577-8652",
    "rating": 0,
    "reviewCount": 0,
    "badges": [],
    "image": "/images/rotated-site-1.jpg",
    "categories": ["Mass Timber"],
    "location": "California",
    "lat": 36.778,
    "lng": -119.418
  },
  {
    "id": "5",
    "name": "Fe Steel Company",
    "slug": "fe-steel-company",
    "description": "",
    "address": "525 E Seaside Way, Long Beach, CA",
    "phone": "+1 (562) 625-2269",
    "rating": 0,
    "reviewCount": 0,
    "badges": [],
    "image": "/images/rotated-site-2.jpg",
    "categories": ["Mass Timber"],
    "location": "California",
    "lat": 33.762,
    "lng": -118.186
  },
  {
    "id": "6",
    "name": "DGCC Steel",
    "slug": "dgcc-steel",
    "description": "",
    "address": "11100 E 108th Ave, Brighton, CO 80601",
    "phone": "+1 (303) 287-3456",
    "rating": 0,
    "reviewCount": 0,
    "badges": [],
    "image": "/images/rotated-site-3.jpg",
    "categories": ["Mass Timber"],
    "location": "Colorado",
    "lat": 39.957,
    "lng": -104.772
  },
  {
    "id": "7",
    "name": "SUPERIOR STEEL",
    "slug": "superior-steel",
    "description": "",
    "address": "21229 84th Avenue South, Kent, WA 98032",
    "phone": "(425) 677-8100",
    "rating": 0,
    "reviewCount": 0,
    "badges": [],
    "image": "/images/clean-interior.png",
    "categories": ["Mass Timber"],
    "location": "Washington",
    "lat": 47.388,
    "lng": -122.233
  },
  {
    "id": "8",
    "name": "California Erectors",
    "slug": "california-erectors",
    "description": "",
    "address": "4500 California Ct., Benicia, CA 94510",
    "phone": "(707) 746-1990",
    "rating": 0,
    "reviewCount": 0,
    "badges": [],
    "image": "/images/workers-installing.png",
    "categories": ["Mass Timber"],
    "location": "California",
    "lat": 38.049,
    "lng": -122.159
  },
  {
    "id": "9",
    "name": "Bapko Metal Inc",
    "slug": "bapko-metal",
    "description": "",
    "address": "721 So. Parker Street, Suite 300 Orange, CA 92868",
    "phone": "(714) 639-9380",
    "rating": 0,
    "reviewCount": 0,
    "badges": [],
    "image": "/images/timber-ceiling.png",
    "categories": ["Mass Timber"],
    "location": "California",
    "lat": 33.787,
    "lng": -117.853
  },
  {
    "id": "10",
    "name": "Salinas Steel Builders Inc",
    "slug": "salinas-steel-builders",
    "description": "",
    "address": "1161 Terven Ave. Salinas, CA 93901",
    "phone": "(831) 424-1647",
    "rating": 0,
    "reviewCount": 0,
    "badges": [],
    "image": "/images/hero-interior.png",
    "categories": ["Mass Timber"],
    "location": "California",
    "lat": 36.674,
    "lng": -121.657
  },
  {
    "id": "11",
    "name": "DYWIDAG Systems Intl Inc",
    "slug": "dywidag-systems",
    "description": "",
    "address": "8324 East US Highway 67, Alvarado, TX 76009",
    "phone": "(817) 473-6161",
    "rating": 0,
    "reviewCount": 0,
    "badges": [],
    "image": "/images/connector-detail.png",
    "categories": ["Mass Timber"],
    "location": "Texas",
    "lat": 32.408,
    "lng": -97.194
  },
  {
    "id": "12",
    "name": "Quality Erectors & Construction",
    "slug": "quality-erectors",
    "description": "",
    "address": "3130 Bayshore Road, Benicia, CA 94510",
    "phone": "(707) 746-1233",
    "rating": 0,
    "reviewCount": 0,
    "badges": [],
    "image": "/images/about-hero.jpg",
    "categories": ["Mass Timber"],
    "location": "California",
    "lat": 38.066,
    "lng": -122.141
  },
  {
    "id": "13",
    "name": "South Bay Iron",
    "slug": "south-bay-iron",
    "description": "",
    "address": "2751 Lynwood Rd, Lynwood, CA 90262",
    "phone": "+1 562-458-4472",
    "rating": 0,
    "reviewCount": 0,
    "badges": [],
    "image": "/images/timber-frame-wide.jpg",
    "categories": ["Mass Timber"],
    "location": "California",
    "lat": 33.930,
    "lng": -118.211
  },
  {
    "id": "14",
    "name": "TSI/Architectural Metals, Inc.",
    "slug": "tsi-architectural-metals",
    "description": "",
    "address": "15800 Commerce Court, Upper Marlboro, MD 20774",
    "phone": "+1 (301) 322-7200",
    "rating": 0,
    "reviewCount": 0,
    "badges": [],
    "image": "/images/site-overview.jpg",
    "categories": ["Mass Timber"],
    "location": "Maryland",
    "lat": 38.814,
    "lng": -76.746
  },
  {
    "id": "15",
    "name": "Walbridge Contractors",
    "slug": "walbridge-contractors",
    "description": "",
    "address": "777 Woodward Ave. Ste. 300, Detroit, MI 48226",
    "phone": "(812) 564-2025",
    "rating": 0,
    "reviewCount": 0,
    "badges": [],
    "image": "/images/building-exterior.jpeg",
    "categories": ["Mass Timber"],
    "location": "Michigan",
    "lat": 42.331,
    "lng": -83.048
  },
  {
    "id": "16",
    "name": "Colorado Framing & Construction",
    "slug": "colorado-framing",
    "description": "",
    "address": "765 W. Anemone Trail Unit 204, Dillon, CO 80435",
    "phone": "(570) 878-4022",
    "rating": 0,
    "reviewCount": 0,
    "badges": [],
    "image": "/images/rotated-frame-1.jpeg",
    "categories": ["Mass Timber"],
    "location": "Colorado",
    "lat": 39.631,
    "lng": -106.043
  },
  {
    "id": "17",
    "name": "Genisa Iron",
    "slug": "genisa-iron",
    "description": "",
    "address": "Burbank, California",
    "phone": "",
    "rating": 4,
    "reviewCount": 1,
    "badges": ["popular"],
    "image": "/images/rotated-contact.jpeg",
    "categories": ["Mass Timber"],
    "location": "California",
    "lat": 34.181,
    "lng": -118.309
  },
  {
    "id": "18",
    "name": "Hodges Erectors, Inc.",
    "slug": "hodges-erectors",
    "description": "Built Miami's first hybrid steel/mass timber commercial building — Apple Miami World Center. IMPACT Project of the Year Nominee.",
    "address": "Miami, Florida",
    "phone": "",
    "rating": 5,
    "reviewCount": 1,
    "badges": ["featured"],
    "image": "/images/projects/apple-miami/Apple 1.jpg",
    "categories": ["Mass Timber"],
    "location": "Florida",
    "lat": 25.781,
    "lng": -80.190
  }
]
